{"groups":[{"type":"Nearby","venues":[{"id":490870,"name":"Bar Louie Central West End","primarycategory":{"id":79153,"fullpathname":"Nightlife:Bar","nodename":"Bar","iconurl":"http://foursquare.com/img/categories/nightlife/default.png"},"address":"14 Maryland Plaza","city":"St. Louis","state":"MO","verified":false,"geolat":38.644181,"geolong":-90.2620309,"stats":{"herenow":"0"},"distance":91},{"id":152515,"name":"Coffee Cartel","primarycategory":{"id":79049,"fullpathname":"Food:Café","nodename":"Café","iconurl":"http://foursquare.com/img/categories/food/cafe.png"},"address":"2 Maryland Plaza","city":"St. Louis","state":"MO","zip":"63108","verified":false,"geolat":38.644734,"geolong":-90.261621,"stats":{"herenow":"0"},"distance":97},{"id":214345,"name":"Starbucks - CWE","primarycategory":{"id":79052,"fullpathname":"Food:Coffee Shop","nodename":"Coffee Shop","iconurl":"http://foursquare.com/img/categories/food/coffeeshop.png"},"address":"4656 Maryland Ave","crossstreet":"at Euclid Ave","city":"Saint Louis","state":"MO","zip":"63108","verified":true,"geolat":38.6446271,"geolong":-90.2610469,"stats":{"herenow":"0"},"phone":"3143671577","twitter":"Starbucks","distance":69},{"id":152558,"name":"Sub Zero Vodka Bar","primarycategory":{"id":79153,"fullpathname":"Nightlife:Bar","nodename":"Bar","iconurl":"http://foursquare.com/img/categories/nightlife/default.png"},"address":"308 North Euclid Avenue","city":"St. Louis","state":"MO","zip":"63108","verified":false,"geolat":38.645073,"geolong":-90.261479,"stats":{"herenow":"0"},"distance":126},{"id":228305,"name":"Brennan's","primarycategory":{"id":79153,"fullpathname":"Nightlife:Bar","nodename":"Bar","iconurl":"http://foursquare.com/img/categories/nightlife/default.png"},"address":"4659 maryland","city":"St. Louis","state":"MO","verified":false,"geolat":38.6447166,"geolong":-90.2613292,"stats":{"herenow":"0"},"distance":84},{"id":212734,"name":"Culpeppers","primarycategory":{"id":79112,"fullpathname":"Food:Wings","nodename":"Wings","iconurl":"http://foursquare.com/img/categories/food/default.png"},"address":"300 N Euclid","crossstreet":"Maryland","city":"St. Louis","state":"MO","zip":"63108","verified":false,"geolat":38.6447443,"geolong":-90.2614937,"stats":{"herenow":"0"},"phone":"3143612828","distance":93},{"id":228410,"name":"Drunken fish","primarycategory":{"id":79070,"fullpathname":"Food:Japanese","nodename":"Japanese","iconurl":"http://foursquare.com/img/categories/food/default.png"},"address":"Euclid","crossstreet":"Maryland","city":"St. Louis","state":"MO","verified":false,"geolat":38.644867853748934,"geolong":-90.26159048080444,"stats":{"herenow":"0"},"distance":109},{"id":152582,"name":"Gelato di Riso","primarycategory":{"id":79067,"fullpathname":"Food:Ice Cream","nodename":"Ice Cream","iconurl":"http://foursquare.com/img/categories/food/icecream.png"},"address":"4663 Maryland Avenue","city":"St. Louis","state":"MO","zip":"63108","verified":false,"geolat":38.644659,"geolong":-90.261176,"stats":{"herenow":"0"},"distance":74},{"id":11716773,"name":"CWE Halloween Party","primarycategory":{"id":79169,"fullpathname":"Nightlife:Other - Nightlife","nodename":"Other - Nightlife","iconurl":"http://foursquare.com/img/categories/nightlife/default.png"},"address":"","city":"","state":"","verified":false,"geolat":38.644682,"geolong":-90.261365,"stats":{"herenow":"0"},"distance":82},{"id":457814,"name":"Audi-K's","primarycategory":{"id":79066,"fullpathname":"Food:Hot Dogs","nodename":"Hot Dogs","iconurl":"http://foursquare.com/img/categories/food/hotdog.png"},"address":"225 N Euclid","crossstreet":"At Maryland","city":"St. Louis","state":"MO","zip":"63108","verified":false,"geolat":38.643906,"geolong":-90.261912,"stats":{"herenow":"0"},"phone":"3143610270","distance":79},{"id":152896,"name":"Liluma","primarycategory":{"id":79080,"fullpathname":"Food:Other - Food","nodename":"Other - Food","iconurl":"http://foursquare.com/img/categories/food/default.png"},"address":"236 North Euclid Avenue","crossstreet":"at Maryland Avenue","city":"St. Louis","state":"MO","zip":"63108","verified":false,"geolat":38.644732,"geolong":-90.261532,"stats":{"herenow":"0"},"distance":93},{"id":3637660,"name":"Sub Zero Vodka Bar","primarycategory":{"id":79153,"fullpathname":"Nightlife:Bar","nodename":"Bar","iconurl":"http://foursquare.com/img/categories/nightlife/default.png"},"address":"308 N Euclid Ave","crossstreet":"Maryland","city":"St Louis","state":"Missouri","zip":"63110","verified":false,"geolat":38.644997736824095,"geolong":-90.26147246360779,"stats":{"herenow":"0"},"phone":"3143671200","distance":118},{"id":152595,"name":"Bar Louis","primarycategory":{"id":79153,"fullpathname":"Nightlife:Bar","nodename":"Bar","iconurl":"http://foursquare.com/img/categories/nightlife/default.png"},"address":"14 Maryland Plaza","city":"St. Louis","state":"MO","zip":"63108","verified":false,"geolat":38.644782,"geolong":-90.26214,"stats":{"herenow":"0"},"distance":131},{"id":10216705,"name":"Central West End","primarycategory":{"id":79173,"fullpathname":"Nightlife:Speakeasy / Secret Spot","nodename":"Speakeasy / Secret Spot","iconurl":"http://foursquare.com/img/categories/nightlife/secretbar.png"},"address":"","city":"","state":"","verified":false,"geolat":38.64401,"geolong":-90.260195,"stats":{"herenow":"0"},"distance":69},{"id":214595,"name":"Schlafly Branch St. Louis Public Library","primarycategory":{"id":79020,"fullpathname":"College & Education:Library","nodename":"Library","iconurl":"http://foursquare.com/img/categories/education/default.png"},"address":"225 N. Euclid","crossstreet":"Lindell","city":"St. Louis","state":"MO","zip":"63108","verified":false,"geolat":38.64355644047937,"geolong":-90.26216983795166,"stats":{"herenow":"0"},"distance":113},{"id":1811686,"name":"Maryland House","primarycategory":{"id":79153,"fullpathname":"Nightlife:Bar","nodename":"Bar","iconurl":"http://foursquare.com/img/categories/nightlife/default.png"},"address":"4659A Maryland","crossstreet":"Euclid","city":"St Louis","state":"MO","zip":"63108","verified":false,"geolat":38.6447166,"geolong":-90.2613292,"stats":{"herenow":"0"},"distance":84},{"id":1451255,"name":"Chess Club & Scholastic Center of STL","primarycategory":{"id":96353,"fullpathname":"Home / Work / Other:Event Space","nodename":"Event Space","iconurl":"http://foursquare.com/img/categories/building/default.png"},"address":"4657 Maryland Avenue","crossstreet":"Euclid","city":"St Louis","state":"MO","zip":"63108","verified":false,"geolat":38.6447163,"geolong":-90.2613277,"stats":{"herenow":"0"},"distance":84},{"id":3390345,"name":"Cecil Whittaker's","primarycategory":{"id":79081,"fullpathname":"Food:Pizza","nodename":"Pizza","iconurl":"http://foursquare.com/img/categories/food/pizza.png"},"address":"","city":"","state":"","verified":false,"geolat":38.644703,"geolong":-90.26156,"stats":{"herenow":"0"},"distance":92},{"id":10107643,"name":"Oops, I Farted ;}","primarycategory":{"id":79173,"fullpathname":"Nightlife:Speakeasy / Secret Spot","nodename":"Speakeasy / Secret Spot","iconurl":"http://foursquare.com/img/categories/nightlife/secretbar.png"},"address":"","city":"","state":"","verified":false,"geolat":38.644592,"geolong":-90.260849,"stats":{"herenow":"0"},"distance":67},{"id":6904442,"name":"Boutique 83","address":"4658 Maryland Ave","city":"St. Louis","state":"MO","zip":"63110","verified":false,"geolat":38.6446562,"geolong":-90.2611884,"stats":{"herenow":"0"},"phone":"3143614700","twitter":"www.twitter.com/boutique83","distance":74},{"id":340245,"name":"Hotel Indigo","primarycategory":{"id":79273,"fullpathname":"Travel:Hotel","nodename":"Hotel","iconurl":"http://foursquare.com/img/categories/travel/hotel.png"},"address":"4630 lindell","city":"St. Louis","state":"MO","verified":false,"geolat":38.64249,"geolong":-90.260394,"stats":{"herenow":"0"},"distance":176},{"id":1133978,"name":"Plaza Dental","address":"","city":"","state":"","verified":false,"geolat":38.643257,"geolong":-90.260748,"stats":{"herenow":"0"},"distance":85},{"id":152986,"name":"Big Sleep Books","primarycategory":{"id":79218,"fullpathname":"Shops:Bookstore","nodename":"Bookstore","iconurl":"http://foursquare.com/img/categories/shops/bookstore.png"},"address":"239 North Euclid","city":"St. Louis","state":"MO","zip":"63108","verified":false,"geolat":38.644524,"geolong":-90.261562,"stats":{"herenow":"0"},"distance":76},{"id":153007,"name":"Ivy Hill","primarycategory":{"id":79213,"fullpathname":"Shops:Apparel:Women","nodename":"Women","iconurl":"http://foursquare.com/img/categories/shops/apparel.png"},"address":"304 North Euclid Avenue","crossstreet":"north of Maryland Plaza","city":"St. Louis","state":"MO","zip":"63108","verified":true,"geolat":38.6449212,"geolong":-90.2615025,"stats":{"herenow":"0"},"distance":111},{"id":8929535,"name":"Cwe","primarycategory":{"id":79153,"fullpathname":"Nightlife:Bar","nodename":"Bar","iconurl":"http://foursquare.com/img/categories/nightlife/default.png"},"address":"","city":"","state":"","verified":false,"geolat":38.644768,"geolong":-90.261486,"stats":{"herenow":"0"},"distance":95},{"id":153011,"name":"Lululemon Athletica","primarycategory":{"id":79208,"fullpathname":"Shops:Apparel","nodename":"Apparel","iconurl":"http://foursquare.com/img/categories/shops/apparel.png"},"address":"234 North Euclid Avenue","crossstreet":"Maryland Plaza","city":"St. Louis","state":"MO","zip":"63108","verified":false,"geolat":38.644106,"geolong":-90.2616178,"stats":{"herenow":"0"},"distance":54},{"id":4831399,"name":"CWE Art Fair","primarycategory":{"id":78981,"fullpathname":"Arts & Entertainment:Other - Entertainment","nodename":"Other - Entertainment","iconurl":"http://foursquare.com/img/categories/arts_entertainment/default.png"},"address":"","city":"","state":"","verified":false,"geolat":38.64472,"geolong":-90.26157,"stats":{"herenow":"0"},"distance":94},{"id":1313467,"name":"Mary Engelbreit Studios","address":"4660 Maryland Pl","city":"St Louis","state":"MO","verified":false,"geolat":38.6446286,"geolong":-90.2610545,"stats":{"herenow":"0"},"distance":70},{"id":5183981,"name":"Carleton Apartments","address":"4616 Lindell Blvd.","city":"St Louis","state":"Missouri","zip":"63108","verified":false,"geolat":38.642819,"geolong":-90.260314,"stats":{"herenow":"0"},"distance":144},{"id":1173076,"name":"Kindred Hospital","primarycategory":{"id":79139,"fullpathname":"Home / Work / Other:Medical:Hospital","nodename":"Hospital","iconurl":"http://foursquare.com/img/categories/building/medical_hospital.png"},"address":"4930 Lindell Blvd.","city":"St Louis","state":"MO","verified":false,"geolat":38.6433299,"geolong":-90.2621429,"stats":{"herenow":"0"},"distance":124},{"id":8343648,"name":"Reagle Beagle","primarycategory":{"id":79153,"fullpathname":"Nightlife:Bar","nodename":"Bar","iconurl":"http://foursquare.com/img/categories/nightlife/default.png"},"address":"","city":"Godfrey","state":"IL","zip":"62035","verified":false,"geolat":38.6435538,"geolong":-90.26023831,"stats":{"herenow":"0"},"distance":82},{"id":1281119,"name":"maring weissman","address":"","city":"","state":"","verified":false,"geolat":38.644754,"geolong":-90.26177,"stats":{"herenow":"0"},"distance":107},{"id":6122148,"name":"Chez OC","address":"4628 Maryland Ave.","city":"St Louis","state":"Missouri","zip":"63113","verified":false,"geolat":38.644123,"geolong":-90.260308,"stats":{"herenow":"0"},"distance":61},{"id":9377854,"name":"Bar Italia's Luna Lounge","primarycategory":{"id":79168,"fullpathname":"Nightlife:Lounge","nodename":"Lounge","iconurl":"http://foursquare.com/img/categories/nightlife/lounge.png"},"address":"13 Maryland Plaza","city":"St Louis","state":"MO","verified":false,"geolat":38.6448765,"geolong":-90.2620818,"stats":{"herenow":"0"},"distance":135},{"id":1388540,"name":"national city bank","primarycategory":{"id":79115,"fullpathname":"Home / Work / Other:Corporate / Office","nodename":"Corporate / Office","iconurl":"http://foursquare.com/img/categories/building/default.png"},"address":"","city":"","state":"","verified":false,"geolat":38.644777,"geolong":-90.26148,"stats":{"herenow":"0"},"distance":96},{"id":152580,"name":"Bahn Mi Boba Tea and Creperie","primarycategory":{"id":79042,"fullpathname":"Food:Asian","nodename":"Asian","iconurl":"http://foursquare.com/img/categories/food/default.png"},"address":"243 North Euclid Avenue","city":"St. Louis","state":"MO","zip":"63108","verified":false,"geolat":38.644537,"geolong":-90.26156,"stats":{"herenow":"0"},"distance":77},{"id":4840267,"name":"CWE Taste & Art Fair","primarycategory":{"id":78981,"fullpathname":"Arts & Entertainment:Other - Entertainment","nodename":"Other - Entertainment","iconurl":"http://foursquare.com/img/categories/arts_entertainment/default.png"},"address":"","city":"","state":"","verified":false,"geolat":38.645183599999996,"geolong":-90.26150403333332,"stats":{"herenow":"0"},"distance":138},{"id":8544753,"name":"Argyle Garage","primarycategory":{"id":311327,"fullpathname":"Home / Work / Other:Parking Garage","nodename":"Parking Garage","iconurl":"http://foursquare.com/img/categories/building/parking.png"},"address":"","city":"","state":"","verified":false,"geolat":38.644561,"geolong":-90.261465,"stats":{"herenow":"0"},"distance":74},{"id":3728235,"name":"Techno Sushi & Hookah Lounge","primarycategory":{"id":79104,"fullpathname":"Food:Sushi","nodename":"Sushi","iconurl":"http://foursquare.com/img/categories/food/sushi.png"},"address":"234 N Euclid Ave","city":"St Louis","state":"Missouri","zip":"63108","verified":false,"geolat":38.6436248,"geolong":-90.2616593,"stats":{"herenow":"0"},"distance":70},{"id":153070,"name":"La Petite Spa","primarycategory":{"id":79249,"fullpathname":"Shops:Spas / Massage","nodename":"Spas / Massage","iconurl":"http://foursquare.com/img/categories/shops/default.png"},"address":"318 North Euclid Avenue","city":"St. Louis","state":"MO","zip":"63108","verified":false,"geolat":38.645451,"geolong":-90.26142,"stats":{"herenow":"0"},"distance":165},{"id":1488607,"name":"mandrin","address":"","city":"","state":"","verified":false,"geolat":38.64344,"geolong":-90.26073,"stats":{"herenow":"0"},"distance":66},{"id":4542043,"name":"Pulaski Bank CWE","address":"","city":"St Louis","state":"MO","verified":false,"geolat":38.645299,"geolong":-90.261658,"stats":{"herenow":"0"},"distance":155},{"id":8007615,"name":"Smokers Outpost","address":"","city":"","state":"","verified":false,"geolat":38.644568,"geolong":-90.262053,"stats":{"herenow":"0"},"distance":111},{"id":153000,"name":"Cassie's","primarycategory":{"id":79209,"fullpathname":"Shops:Apparel:Boutique","nodename":"Boutique","iconurl":"http://foursquare.com/img/categories/shops/apparel.png"},"address":"316 North Euclid Avenue","crossstreet":"north of Maryland Avenue","city":"St. Louis","state":"MO","zip":"63108","verified":false,"geolat":38.645392,"geolong":-90.261424,"stats":{"herenow":"0"},"distance":159},{"id":10371448,"name":"Dovetail","address":"12 Maryland Plaza","city":"St Louis","state":"MO","verified":false,"geolat":38.6448316,"geolong":-90.2620192,"stats":{"herenow":"0"},"distance":128},{"id":4555089,"name":"Bbc","address":"","city":"","state":"","verified":false,"geolat":38.644632,"geolong":-90.262208,"stats":{"herenow":"0"},"distance":126},{"id":153010,"name":"Companion","primarycategory":{"id":79226,"fullpathname":"Shops:Food & Drink","nodename":"Food & Drink","iconurl":"http://foursquare.com/img/categories/shops/default.png"},"address":"4651 Maryland Avenue","crossstreet":"Euclid Avenue","city":"St. Louis","state":"MO","zip":"63108","verified":false,"geolat":38.644844,"geolong":-90.260994,"stats":{"herenow":"0"},"distance":93},{"id":7735681,"name":"Coiffures By Shawn","primarycategory":{"id":79248,"fullpathname":"Shops:Salon / Barbershop","nodename":"Salon / Barbershop","iconurl":"http://foursquare.com/img/categories/shops/salon_barber.png"},"address":"312 North Euclid Avenue","city":"St Louis","state":"MO","zip":"63108","verified":false,"geolat":38.6452754,"geolong":-90.2614075,"stats":{"herenow":"0"},"distance":146},{"id":5894978,"name":"Duff's","primarycategory":{"id":79039,"fullpathname":"Food:American","nodename":"American","iconurl":"http://foursquare.com/img/categories/food/default.png"},"address":"329 N Euclid ave","crossstreet":"McPherson ave","city":"St. Louis","state":"MO","zip":"63108","verified":false,"geolat":38.6454371,"geolong":-90.2614205,"stats":{"herenow":"0"},"phone":"3143610522","distance":164},{"id":12825066,"name":"Central Cafe","primarycategory":{"id":79077,"fullpathname":"Food:Middle Eastern","nodename":"Middle Eastern","iconurl":"http://foursquare.com/img/categories/food/middleeastern.png"},"address":"313 N Euclid Ave","city":"St Louis","state":"Missouri","zip":"63108","verified":false,"geolat":38.6452773,"geolong":-90.2615703,"stats":{"herenow":"0"},"distance":150}]}]}