{"groups":[{"type":"Nearby","venues":[{"id":152494,"name":"Ritz Carlton Hotel","primarycategory":{"id":79273,"fullpathname":"Travel:Hotel","nodename":"Hotel","iconurl":"http://foursquare.com/img/categories/travel/hotel.png"},"address":"100 Carondelet Plaza","city":"St. Louis","state":"MO","zip":"63105","verified":false,"geolat":38.648828,"geolong":-90.33081,"stats":{"herenow":"0"},"distance":148},{"id":175707,"name":"West Campus, Washington University","primarycategory":{"id":79001,"fullpathname":"College & Education:Administrative Building","nodename":"Administrative Building","iconurl":"http://foursquare.com/img/categories/education/default.png"},"address":"7425 Forsyth Blvd","crossstreet":"Forest Park Pkwy","city":"St. Louis","state":"MO","zip":"63105","verified":false,"geolat":38.649162,"geolong":-90.3288406,"stats":{"herenow":"0"},"phone":"3149359889","distance":137},{"id":173778,"name":"Kaldi's Coffee House - Clayton","primarycategory":{"id":79052,"fullpathname":"Food:Coffee Shop","nodename":"Coffee Shop","iconurl":"http://foursquare.com/img/categories/food/coffeeshop.png"},"address":"187 Carondelet Plaza","city":"St. Louis","state":"MO","zip":"63105","verified":false,"geolat":38.6486501,"geolong":-90.3318247,"stats":{"herenow":"0"},"distance":218},{"id":197423,"name":"Wine & Cheese Place","primarycategory":{"id":79177,"fullpathname":"Nightlife:Wine Bar","nodename":"Wine Bar","iconurl":"http://foursquare.com/img/categories/nightlife/wine.png"},"address":"7435 Forsyth Blvd.","crossstreet":"at Jackson","city":"St. Louis","state":"MO","zip":"63105","verified":false,"geolat":38.6493695,"geolong":-90.3292392,"stats":{"herenow":"0"},"phone":"3147278788","twitter":"twcpbeer","distance":96},{"id":867122,"name":"Forsyth MetroLink Station","primarycategory":{"id":79278,"fullpathname":"Travel:Light Rail","nodename":"Light Rail","iconurl":"http://foursquare.com/img/categories/travel/lightrail.png"},"address":"7411 Forsyth Blvd.","crossstreet":"forsyth","city":"St Louis","state":"MO","zip":"63130","verified":false,"geolat":38.64902,"geolong":-90.3286053,"stats":{"herenow":"0"},"twitter":"stltransit","distance":163},{"id":5741601,"name":"Saint Louis Art Fair","primarycategory":{"id":78960,"fullpathname":"Arts & Entertainment:Art Gallery","nodename":"Art Gallery","iconurl":"http://foursquare.com/img/categories/arts_entertainment/artgallery.png"},"address":"Forsyth Blvd","crossstreet":"Meramac","city":"Clayton","state":"Mo","zip":"63105","verified":true,"geolat":38.6488801,"geolong":-90.3284653,"stats":{"herenow":"0"},"phone":"3148630291","twitter":"culturalfest","distance":182},{"id":358618,"name":"Wellbridge Athletic Club","primarycategory":{"id":79120,"fullpathname":"Home / Work / Other:Gym / Fitness:Gym","nodename":"Gym","iconurl":"http://foursquare.com/img/categories/building/gym.png"},"address":"7620 Forsyth Blvd","crossstreet":"Hanley","city":"St. Louis","state":"MO","zip":"63105","verified":false,"geolat":38.649526,"geolong":-90.333009,"stats":{"herenow":"0"},"distance":266},{"id":6447712,"name":"Ichigo Modern Japanese Restaurant","primarycategory":{"id":79104,"fullpathname":"Food:Sushi","nodename":"Sushi","iconurl":"http://foursquare.com/img/categories/food/sushi.png"},"address":"7443 Forsyth Boulevard","city":"St Louis","state":"Missouri","zip":"63105","verified":false,"geolat":38.64989,"geolong":-90.329463,"stats":{"herenow":"0"},"phone":"3147260033","distance":48},{"id":5973789,"name":"Showtime Mail LLC Clayton","primarycategory":{"id":79115,"fullpathname":"Home / Work / Other:Corporate / Office","nodename":"Corporate / Office","iconurl":"http://foursquare.com/img/categories/building/default.png"},"address":"7533 Forsyth Blvd","crossstreet":"Hanley/Forsyth","city":"Clayton","state":"MO","zip":"63105","verified":false,"geolat":38.649948,"geolong":-90.33199,"stats":{"herenow":"0"},"distance":173},{"id":2642483,"name":"Extra Virgin an olive ovation","primarycategory":{"id":96359,"fullpathname":"Shops:Food & Drink:Gourmet","nodename":"Gourmet","iconurl":"http://foursquare.com/img/categories/shops/default.png"},"address":"143 Carondelet Plaza","crossstreet":"Hanley Road","city":"Clayton","state":"MO","zip":"63105","verified":false,"geolat":38.6495316,"geolong":-90.3301386,"stats":{"herenow":"0"},"distance":53},{"id":152931,"name":"Araka","primarycategory":{"id":79075,"fullpathname":"Food:Mediterranean","nodename":"Mediterranean","iconurl":"http://foursquare.com/img/categories/food/default.png"},"address":"131 Carondelet Plaza","crossstreet":"near South Hanley Road","city":"St. Louis","state":"MO","zip":"63105","verified":true,"geolat":38.6486618,"geolong":-90.3319609,"stats":{"herenow":"0"},"distance":226},{"id":152917,"name":"Sekisui Pacific Rim","primarycategory":{"id":79070,"fullpathname":"Food:Japanese","nodename":"Japanese","iconurl":"http://foursquare.com/img/categories/food/default.png"},"address":"7443 Forsyth Boulevard","crossstreet":"Forest Park Parkway","city":"St. Louis","state":"MO","zip":"63105","verified":false,"geolat":38.64989,"geolong":-90.329463,"stats":{"herenow":"0"},"twitter":"sprclayton","distance":48},{"id":775820,"name":"Bally Total Fitness","primarycategory":{"id":79120,"fullpathname":"Home / Work / Other:Gym / Fitness:Gym","nodename":"Gym","iconurl":"http://foursquare.com/img/categories/building/gym.png"},"address":"7393 Forsyth","city":"Clayton","state":"MO","verified":false,"geolat":38.6489758,"geolong":-90.3285509,"stats":{"herenow":"0"},"distance":169},{"id":222827,"name":"Crazy Bowls and Wraps - Clayton","primarycategory":{"id":79109,"fullpathname":"Food:Vegetarian / Vegan","nodename":"Vegetarian / Vegan","iconurl":"http://foursquare.com/img/categories/food/vegetarian.png"},"address":"7353 Forsyth","crossstreet":"Forest Park Parkway","city":"St. Louis","state":"MO","zip":"63105","verified":false,"geolat":38.6485144,"geolong":-90.3271541,"stats":{"herenow":"0"},"distance":297},{"id":516303,"name":"Woodard's BP","primarycategory":{"id":79237,"fullpathname":"Shops:Gas Station / Garage","nodename":"Gas Station / Garage","iconurl":"http://foursquare.com/img/categories/shops/gas.png"},"address":"Forsyth","crossstreet":"Forest Park Pky","city":"Clayton","state":"MO","verified":false,"geolat":38.648861,"geolong":-90.328061,"stats":{"herenow":"0"},"distance":210},{"id":8577101,"name":"Frank's desk","primarycategory":{"id":79009,"fullpathname":"College & Education:Academic Building:Technology","nodename":"Technology","iconurl":"http://foursquare.com/img/categories/education/default.png"},"address":"7425 Forsyth","city":"Clayton","state":"MO","zip":"63106","verified":false,"geolat":38.6495524,"geolong":-90.3300192,"stats":{"herenow":"0"},"distance":49},{"id":10414508,"name":"Ivey-Selkirk","primarycategory":{"id":79207,"fullpathname":"Shops:Antiques","nodename":"Antiques","iconurl":"http://foursquare.com/img/categories/shops/antique.png"},"address":"7447 Forsyth Blvd.","crossstreet":"Jackson Ave.","city":"Clayton","state":"Missouri","zip":"63035","verified":false,"geolat":38.6495752,"geolong":-90.329816,"stats":{"herenow":"0"},"distance":49},{"id":6346546,"name":"Ritz Carlton Cigar Club","primarycategory":{"id":79168,"fullpathname":"Nightlife:Lounge","nodename":"Lounge","iconurl":"http://foursquare.com/img/categories/nightlife/lounge.png"},"address":"","city":"","state":"","verified":false,"geolat":38.648373,"geolong":-90.332123,"stats":{"herenow":"0"},"distance":258},{"id":2482473,"name":"CAIT - Washington University","primarycategory":{"id":79009,"fullpathname":"College & Education:Academic Building:Technology","nodename":"Technology","iconurl":"http://foursquare.com/img/categories/education/default.png"},"address":"5 N. Jackson","crossstreet":"Forsythe Blvd.","city":"Clayton","state":"MO","zip":"63105","verified":false,"geolat":38.6509297,"geolong":-90.3298881,"stats":{"herenow":"0"},"distance":103},{"id":7510364,"name":"Work","address":"Forsyth Blvd","city":"Clayton","state":"MO","verified":false,"geolat":38.6488801,"geolong":-90.3284653,"stats":{"herenow":"0"},"distance":182},{"id":4970210,"name":"Blue Element Salon","primarycategory":{"id":79248,"fullpathname":"Shops:Salon / Barbershop","nodename":"Salon / Barbershop","iconurl":"http://foursquare.com/img/categories/shops/salon_barber.png"},"address":"7529 forsyth blvd.","city":"Clayton","state":"MO","verified":false,"geolat":38.64993,"geolong":-90.331781,"stats":{"herenow":"0"},"phone":"3147251200","distance":155},{"id":6641073,"name":"Dos","primarycategory":{"id":79208,"fullpathname":"Shops:Apparel","nodename":"Apparel","iconurl":"http://foursquare.com/img/categories/shops/apparel.png"},"address":"","city":"","state":"","verified":false,"geolat":38.649757,"geolong":-90.331177,"stats":{"herenow":"0"},"distance":105},{"id":4231973,"name":"McCallisters","primarycategory":{"id":79039,"fullpathname":"Food:American","nodename":"American","iconurl":"http://foursquare.com/img/categories/food/default.png"},"address":"Forsyth Blvd","crossstreet":"Central Ave.","city":"Clayton","state":"Missouri","zip":"63105","verified":false,"geolat":38.6488801,"geolong":-90.3284653,"stats":{"herenow":"0"},"distance":182},{"id":1211219,"name":"Kreuger's Bar","primarycategory":{"id":79153,"fullpathname":"Nightlife:Bar","nodename":"Bar","iconurl":"http://foursquare.com/img/categories/nightlife/default.png"},"address":"7347 Forsyth Blvd","crossstreet":"St. Louis","city":"MO","state":"63105","verified":false,"geolat":38.648707,"geolong":-90.327062,"stats":{"herenow":"0"},"distance":293},{"id":175891,"name":"Seksui","address":"7443 Forsyth Blvd","city":"St. Louis","state":"MO","zip":"63105","verified":false,"geolat":38.64989,"geolong":-90.329463,"stats":{"herenow":"0"},"phone":"3147260033","distance":48},{"id":4573511,"name":"Clayton Pet Spa","address":"7533 R. Forsyth","city":"Clayton","state":"MO","verified":false,"geolat":38.649948,"geolong":-90.33199,"stats":{"herenow":"0"},"distance":173},{"id":152887,"name":"Grill @ The Ritz-Carlton","primarycategory":{"id":96351,"fullpathname":"Food:New American","nodename":"New American","iconurl":"http://foursquare.com/img/categories/food/default.png"},"address":"100 Carondelet Plaza","city":"St. Louis","state":"MO","zip":"63105","verified":false,"geolat":38.648148,"geolong":-90.331113,"stats":{"herenow":"0"},"distance":227},{"id":8490365,"name":"The Family Center- Maryland","primarycategory":{"id":79011,"fullpathname":"College & Education:Classroom","nodename":"Classroom","iconurl":"http://foursquare.com/img/categories/education/default.png"},"address":"","city":"","state":"","verified":false,"geolat":38.651703,"geolong":-90.330278,"stats":{"herenow":"0"},"distance":191},{"id":5270698,"name":"Voluntary Interdistrict Choice Corporation","primarycategory":{"id":79001,"fullpathname":"College & Education:Administrative Building","nodename":"Administrative Building","iconurl":"http://foursquare.com/img/categories/education/default.png"},"address":"7435 Forsyth","crossstreet":"WUSTL West Campus Building","city":"Clayton","state":"MO","zip":"63105","verified":false,"geolat":38.6493714,"geolong":-90.329236,"stats":{"herenow":"0"},"distance":96},{"id":9208008,"name":"Zapp Conference","address":"Sheraton Clayton Plaza","city":"Clayton","state":"Missouri","verified":false,"geolat":38.648781,"geolong":-90.33045,"stats":{"herenow":"0"},"distance":141},{"id":2639819,"name":"Lucy Lee Nails and Spa","primarycategory":{"id":79216,"fullpathname":"Shops:Beauty / Cosmetic","nodename":"Beauty / Cosmetic","iconurl":"http://foursquare.com/img/categories/shops/beauty_cosmetic.png"},"address":"","crossstreet":"Hanley Road","city":"Clayton","state":"MO","zip":"63105","verified":false,"geolat":38.648575,"geolong":-90.332086,"stats":{"herenow":"0"},"distance":240},{"id":152561,"name":"The Lobby Lounge","primarycategory":{"id":79156,"fullpathname":"Nightlife:Cocktails / Mixology","nodename":"Cocktails / Mixology","iconurl":"http://foursquare.com/img/categories/nightlife/cocktails.png"},"address":"100 Carondelet Plaza","city":"St. Louis","state":"MO","zip":"63105","verified":false,"geolat":38.648148,"geolong":-90.331113,"stats":{"herenow":"0"},"distance":227},{"id":5691293,"name":"Clayton License Bureau","primarycategory":{"id":79125,"fullpathname":"Home / Work / Other:Government","nodename":"Government","iconurl":"http://foursquare.com/img/categories/building/default.png"},"address":"7638 Forsyth Blvd","crossstreet":"Hanley Blvd","city":"Clayton","state":"Missouri","zip":"63105","verified":false,"geolat":38.6497529,"geolong":-90.3327074,"stats":{"herenow":"0"},"distance":236},{"id":361046,"name":"The Plaza","address":"150 carondelet plaza","city":"St. Louis","state":"MO","zip":"63105","verified":false,"geolat":38.648132,"geolong":-90.332422,"stats":{"herenow":"0"},"distance":295},{"id":5740353,"name":"Clayton License Office","primarycategory":{"id":79125,"fullpathname":"Home / Work / Other:Government","nodename":"Government","iconurl":"http://foursquare.com/img/categories/building/default.png"},"address":"7638 Forsyth Blvd","crossstreet":"Hanely Rd","city":"Clayton","state":"MO","zip":"63105","verified":false,"geolat":38.6497529,"geolong":-90.3327074,"stats":{"herenow":"0"},"phone":"3148635331","distance":236},{"id":202300,"name":"Blackberry Cafe","address":"7351 Forsyth Blvd","crossstreet":"Forest Park Parkway","city":"St. Louis","state":"MO","zip":"63105","verified":false,"geolat":38.648705,"geolong":-90.327343,"stats":{"herenow":"0"},"distance":272},{"id":152796,"name":"Cafe de France","primarycategory":{"id":79063,"fullpathname":"Food:French","nodename":"French","iconurl":"http://foursquare.com/img/categories/food/default.png"},"address":"7515 Forsyth Boulevard","city":"Clayton","state":"MO","zip":"63105","verified":false,"geolat":38.649658,"geolong":-90.330948,"stats":{"herenow":"0"},"distance":90},{"id":1155750,"name":"Imos Clayton","primarycategory":{"id":79081,"fullpathname":"Food:Pizza","nodename":"Pizza","iconurl":"http://foursquare.com/img/categories/food/pizza.png"},"address":"7359 Forsyth","city":"Clayton","state":"MO","verified":false,"geolat":38.6485204,"geolong":-90.3272127,"stats":{"herenow":"0"},"phone":"3148624667","distance":292},{"id":656602,"name":"firestone","primarycategory":{"id":114952,"fullpathname":"Shops:Automotive","nodename":"Automotive","iconurl":"http://foursquare.com/img/categories/shops/automotive.png"},"address":"7361 forsyth blvd","city":"St louis","state":"Mo","zip":"63105","verified":false,"geolat":38.6485224,"geolong":-90.3272322,"stats":{"herenow":"0"},"distance":291},{"id":1515572,"name":"tSunela","address":"7525 Forsyth Boulevard","city":"Clayton","state":"MO","verified":false,"geolat":38.649916,"geolong":-90.331625,"stats":{"herenow":"0"},"distance":141},{"id":203846,"name":"Clayton High School","primarycategory":{"id":79017,"fullpathname":"College & Education:High School","nodename":"High School","iconurl":"http://foursquare.com/img/categories/education/default.png"},"address":"Forsythe","city":"St. Louis","state":"MO","verified":false,"geolat":38.648861,"geolong":-90.328061,"stats":{"herenow":"0"},"distance":210},{"id":259161,"name":"Jewel Box","address":"Forest Park","city":"St. Louis","state":"MO","verified":false,"geolat":38.648078,"geolong":-90.3307944,"stats":{"herenow":"0"},"distance":224},{"id":5974384,"name":"Valerie Mills","primarycategory":{"id":79209,"fullpathname":"Shops:Apparel:Boutique","nodename":"Boutique","iconurl":"http://foursquare.com/img/categories/shops/apparel.png"},"address":"139 Carondelet Plz","city":"Clayton","state":"MO","zip":"63105","verified":false,"geolat":38.648481,"geolong":-90.3326319,"stats":{"herenow":"0"},"phone":"3147274545","distance":284},{"id":634039,"name":"Single Malt Society","address":"7435 Forsyth Blvd","city":"Clayton","state":"MO","verified":false,"geolat":38.6493695,"geolong":-90.3292392,"stats":{"herenow":"0"},"distance":96},{"id":5935165,"name":"Ashleys Work","address":"Forsyth Blvd","city":"Clayton","state":"Missouri","zip":"63105","verified":false,"geolat":38.6488801,"geolong":-90.3284653,"stats":{"herenow":"0"},"distance":182},{"id":12414007,"name":"AAW STL 2010","primarycategory":{"id":79113,"fullpathname":"Home / Work / Other:Convention Center","nodename":"Convention Center","iconurl":"http://foursquare.com/img/categories/building/default.png"},"address":"100 Ritz Carlton Drive","city":"St. Louis","state":"MO","zip":"63105","verified":false,"geolat":38.648347,"geolong":-90.331002,"stats":{"herenow":"0"},"distance":203},{"id":4541513,"name":"Bank of America - Clayton Branch","address":"Forsyth","city":"St Louis","state":"MO","zip":"63105","verified":false,"geolat":38.648842,"geolong":-90.328447,"stats":{"herenow":"0"},"distance":186},{"id":152560,"name":"The Wine Room","primarycategory":{"id":79177,"fullpathname":"Nightlife:Wine Bar","nodename":"Wine Bar","iconurl":"http://foursquare.com/img/categories/nightlife/wine.png"},"address":"100 Carondelet Plaza","city":"St. Louis","state":"MO","zip":"63105","verified":false,"geolat":38.648148,"geolong":-90.331113,"stats":{"herenow":"0"},"distance":227},{"id":10526400,"name":"Clayton Book Fair","address":"Maryland","city":"St Louis","state":"Missouri","zip":"63105","verified":false,"geolat":38.6510871,"geolong":-90.3312094,"stats":{"herenow":"0"},"distance":160},{"id":773014,"name":"Zangara Salon & Spa","address":"","city":"","state":"","verified":false,"geolat":38.649036,"geolong":-90.327171,"stats":{"herenow":"0"},"distance":268}]}]}