{"groups":[{"type":"Nearby","venues":[{"id":152551,"name":"Mosaic Restaurant and Tapas","primarycategory":{"id":79086,"fullpathname":"Food:Snacks","nodename":"Snacks","iconurl":"http://foursquare.com/img/categories/food/default.png"},"address":"1001 Washington Ave","crossstreet":"at 10th St","city":"St Louis","state":"MO","zip":"63101","verified":true,"geolat":38.631246,"geolong":-90.193977,"stats":{"herenow":"0"},"phone":"3146216001","twitter":"EnjoyMosaic","distance":27},{"id":152570,"name":"The Dubliner","primarycategory":{"id":79170,"fullpathname":"Nightlife:Pub","nodename":"Pub","iconurl":"http://foursquare.com/img/categories/nightlife/default.png"},"address":"1025 Washington Avenue","crossstreet":"btw 10th & 11th","city":"Saint Louis","state":"MO","zip":"63101","verified":false,"geolat":38.63143,"geolong":-90.194728,"stats":{"herenow":"0"},"phone":"3144214300","distance":79},{"id":205095,"name":"Over/Under Bar and Grill","primarycategory":{"id":79039,"fullpathname":"Food:American","nodename":"American","iconurl":"http://foursquare.com/img/categories/food/default.png"},"address":"911 Washington Ave","crossstreet":"btw 9th & 10th","city":"Saint Louis","state":"MO","zip":"63101","verified":false,"geolat":38.6310492,"geolong":-90.193198,"stats":{"herenow":"0"},"phone":"3146218881","distance":69},{"id":1624557,"name":"INFUZ","primarycategory":{"id":79115,"fullpathname":"Home / Work / Other:Corporate / Office","nodename":"Corporate / Office","iconurl":"http://foursquare.com/img/categories/building/default.png"},"address":"611 N. 10th St. / Suite 400","crossstreet":"Washington Ave.","city":"St. Louis","state":"MO","zip":"63101","verified":false,"geolat":38.6312507,"geolong":-90.1938023,"stats":{"herenow":"0"},"phone":"3145848000","twitter":"infuz","distance":32},{"id":5119609,"name":"Stefano's","primarycategory":{"id":79069,"fullpathname":"Food:Italian","nodename":"Italian","iconurl":"http://foursquare.com/img/categories/food/default.png"},"address":"504 N 10th St.","crossstreet":"btw Washington and St. Charles","city":"Saint Louis","state":"MO","zip":"63101","verified":false,"geolat":38.6306193,"geolong":-90.1939969,"stats":{"herenow":"0"},"phone":"3142417722","distance":42},{"id":180042,"name":"Mizu","primarycategory":{"id":79104,"fullpathname":"Food:Sushi","nodename":"Sushi","iconurl":"http://foursquare.com/img/categories/food/sushi.png"},"address":"1013 Washington Ave.","crossstreet":"10th","city":"St. Louis","state":"MO","zip":"63101","verified":false,"geolat":38.6313102,"geolong":-90.1944546,"stats":{"herenow":"0"},"phone":"3146212646","distance":52},{"id":10060760,"name":"First Omni","primarycategory":{"id":79115,"fullpathname":"Home / Work / Other:Corporate / Office","nodename":"Corporate / Office","iconurl":"http://foursquare.com/img/categories/building/default.png"},"address":"1001 Washington Ave. Suite 570","crossstreet":"10th street","city":"St Louis","state":"Missouri","zip":"63101","verified":false,"geolat":38.631246,"geolong":-90.193977,"stats":{"herenow":"0"},"phone":"3148024190","distance":27},{"id":2318642,"name":"4ORCE Digital","address":"411 North 10th St.; Suite 300","crossstreet":"Locust St.","city":"Saint Louis","state":"MO","zip":"63101","verified":true,"geolat":38.6299995,"geolong":-90.1943056,"stats":{"herenow":"0"},"phone":"3148811900","distance":114},{"id":5383203,"name":"Phoenix Creative Co.","address":"611 North Tenth St.","city":"St Louis","state":"MO","zip":"63101","verified":false,"geolat":38.6312507,"geolong":-90.1938023,"stats":{"herenow":"0"},"distance":32},{"id":218550,"name":"Bubba Tea & Cafe","primarycategory":{"id":79052,"fullpathname":"Food:Coffee Shop","nodename":"Coffee Shop","iconurl":"http://foursquare.com/img/categories/food/coffeeshop.png"},"address":"417 N. 10th St.","crossstreet":"Locust St.","city":"St. Louis","state":"MO","zip":"63101","verified":false,"geolat":38.63004,"geolong":-90.194288,"stats":{"herenow":"0"},"phone":"3142315282","distance":109},{"id":234952,"name":"Curlee Building","primarycategory":{"id":79140,"fullpathname":"Home / Work / Other:Other - Buildings","nodename":"Other - Buildings","iconurl":"http://foursquare.com/img/categories/building/default.png"},"address":"611 North 10th Street","crossstreet":"Washington","city":"St. Louis","state":"MO","zip":"63101","verified":false,"geolat":38.6312507,"geolong":-90.1938023,"stats":{"herenow":"0"},"distance":32},{"id":8476971,"name":"Dorsa Gym","primarycategory":{"id":79120,"fullpathname":"Home / Work / Other:Gym / Fitness:Gym","nodename":"Gym","iconurl":"http://foursquare.com/img/categories/building/gym.png"},"address":"","city":"","state":"","verified":false,"geolat":38.631142,"geolong":-90.193658,"stats":{"herenow":"0"},"distance":33},{"id":4430887,"name":"Mizu Sushi Bar","primarycategory":{"id":79104,"fullpathname":"Food:Sushi","nodename":"Sushi","iconurl":"http://foursquare.com/img/categories/food/sushi.png"},"address":"1013 Washington Ave","city":"St Louis","state":"Missouri","zip":"63101","verified":false,"geolat":38.6313102,"geolong":-90.1944546,"stats":{"herenow":"0"},"phone":"3146212646","distance":52},{"id":6204037,"name":"Mosiac Restaurant","primarycategory":{"id":79049,"fullpathname":"Food:Café","nodename":"Café","iconurl":"http://foursquare.com/img/categories/food/cafe.png"},"address":"1001 Washington Avenue","city":"St Louis","state":"Missouri","zip":"63101","verified":false,"geolat":38.631246,"geolong":-90.193977,"stats":{"herenow":"0"},"distance":27},{"id":466370,"name":"10th Street Lofts","primarycategory":{"id":79140,"fullpathname":"Home / Work / Other:Other - Buildings","nodename":"Other - Buildings","iconurl":"http://foursquare.com/img/categories/building/default.png"},"address":"1010 St. Charles St.","crossstreet":"Between 10th & 11th","city":"St. Louis","state":"MO","zip":"63101","verified":false,"geolat":38.6304469,"geolong":-90.19441,"stats":{"herenow":"0"},"distance":71},{"id":2479399,"name":"Infuz mens room","primarycategory":{"id":96353,"fullpathname":"Home / Work / Other:Event Space","nodename":"Event Space","iconurl":"http://foursquare.com/img/categories/building/default.png"},"address":"611 N. 10th","crossstreet":"Washington Ave","city":"St. Louis","state":"MO","zip":"63101","verified":false,"geolat":38.63159759069431,"geolong":-90.1940444111824,"stats":{"herenow":"0"},"distance":66},{"id":6962275,"name":"Mosaic Modern Fusion","address":"1001 Washington Ave","crossstreet":"10th","city":"St Louis","state":"MO","zip":"63101","verified":false,"geolat":38.631246,"geolong":-90.193977,"stats":{"herenow":"0"},"phone":"3146216001","distance":27},{"id":172843,"name":"Left Bank Books","primarycategory":{"id":79218,"fullpathname":"Shops:Bookstore","nodename":"Bookstore","iconurl":"http://foursquare.com/img/categories/shops/bookstore.png"},"address":"321 N. 10th Street","crossstreet":"at Locust St","city":"Saint Louis","state":"MO","zip":"63101","verified":false,"geolat":38.62985848877735,"geolong":-90.19444406032562,"stats":{"herenow":"0"},"phone":"3144363049","twitter":"LeftBankBooks","distance":132},{"id":12082476,"name":"Prime 1000","primarycategory":{"id":79092,"fullpathname":"Food:Steakhouse","nodename":"Steakhouse","iconurl":"http://foursquare.com/img/categories/food/steakhouse.png"},"address":"1000 Washington Ave.","crossstreet":"10th Street","city":"Saint Louis","state":"MO","zip":"63101","verified":false,"geolat":38.631287,"geolong":-90.194578,"stats":{"herenow":"0"},"distance":59},{"id":4898233,"name":"AIA St. Louis","primarycategory":{"id":79218,"fullpathname":"Shops:Bookstore","nodename":"Bookstore","iconurl":"http://foursquare.com/img/categories/shops/bookstore.png"},"address":"911 Washington","crossstreet":"btw 9th & 10 in the Lammert bldg","city":"St Louis","state":"MO","zip":"63101","verified":false,"geolat":38.6310492,"geolong":-90.193198,"stats":{"herenow":"0"},"distance":69},{"id":9201153,"name":"Hennessy & Roach, P.C.","primarycategory":{"id":79115,"fullpathname":"Home / Work / Other:Corporate / Office","nodename":"Corporate / Office","iconurl":"http://foursquare.com/img/categories/building/default.png"},"address":"415 N. 10th St","crossstreet":"Washington Ave","city":"St Louis","state":"MO","zip":"63101","verified":false,"geolat":38.6300265,"geolong":-90.1942938,"stats":{"herenow":"0"},"distance":111},{"id":1872938,"name":"Coolfire Media","primarycategory":{"id":79115,"fullpathname":"Home / Work / Other:Corporate / Office","nodename":"Corporate / Office","iconurl":"http://foursquare.com/img/categories/building/default.png"},"address":"415 N. 10th St., 3rd Floor","city":"St Louis","state":"MO","zip":"63101","verified":false,"geolat":38.6300265,"geolong":-90.1942938,"stats":{"herenow":"0"},"phone":"3144212665","twitter":"Coolfiremedia","distance":111},{"id":2501717,"name":"Ceci","primarycategory":{"id":79244,"fullpathname":"Shops:Other - Shopping","nodename":"Other - Shopping","iconurl":"http://foursquare.com/img/categories/shops/default.png"},"address":"","city":"St Louis","state":"MO","verified":false,"geolat":38.631186,"geolong":-90.194434,"stats":{"herenow":"0"},"distance":43},{"id":5701470,"name":"Citizens For Modern Transit","primarycategory":{"id":79115,"fullpathname":"Home / Work / Other:Corporate / Office","nodename":"Corporate / Office","iconurl":"http://foursquare.com/img/categories/building/default.png"},"address":"","city":"","state":"","verified":false,"geolat":38.631004,"geolong":-90.193214,"stats":{"herenow":"0"},"distance":68},{"id":3958081,"name":"The Merchandise Mart Gym","primarycategory":{"id":79120,"fullpathname":"Home / Work / Other:Gym / Fitness:Gym","nodename":"Gym","iconurl":"http://foursquare.com/img/categories/building/gym.png"},"address":"1000 Washington Ave","city":"St Louis","state":"MO","zip":"63101","verified":false,"geolat":38.631287,"geolong":-90.194578,"stats":{"herenow":"0"},"distance":59},{"id":1870746,"name":"McMurphy's Grill","primarycategory":{"id":79153,"fullpathname":"Nightlife:Bar","nodename":"Bar","iconurl":"http://foursquare.com/img/categories/nightlife/default.png"},"address":"614 N. 11th Street","crossstreet":"Lucas","city":"St Louis","state":"MO","zip":"63101","verified":false,"geolat":38.631906,"geolong":-90.194525,"stats":{"herenow":"0"},"distance":110},{"id":11982980,"name":"Absentee Voting","primarycategory":{"id":311328,"fullpathname":"Home / Work / Other:Voting Booth","nodename":"Voting Booth","iconurl":"http://foursquare.com/img/categories/building/votingbooth.png"},"address":"","city":"","state":"","verified":false,"geolat":38.631154,"geolong":-90.194459,"stats":{"herenow":"0"},"distance":43},{"id":252697,"name":"Original Soupman","primarycategory":{"id":79087,"fullpathname":"Food:Soup","nodename":"Soup","iconurl":"http://foursquare.com/img/categories/food/default.png"},"address":"612 N. 11th Street","crossstreet":"at Washington Ave","city":"St. Louis","state":"MO","zip":"63101","verified":false,"geolat":38.6315185,"geolong":-90.1948882,"stats":{"herenow":"0"},"phone":"3146216736","distance":96},{"id":5170956,"name":"10th Street Offuces Downtown","address":"","city":"","state":"","verified":false,"geolat":38.631159,"geolong":-90.194075,"stats":{"herenow":"0"},"distance":18},{"id":12854862,"name":"Confluence Academy","primarycategory":{"id":79001,"fullpathname":"College & Education:Administrative Building","nodename":"Administrative Building","iconurl":"http://foursquare.com/img/categories/education/default.png"},"address":"611 North 10th Street","crossstreet":"10th & Washington","city":"St. Louis","state":"MO","zip":"63101","verified":false,"geolat":38.6312507,"geolong":-90.1938023,"stats":{"herenow":"0"},"distance":32},{"id":1757682,"name":"Dee dee's deli","primarycategory":{"id":79053,"fullpathname":"Food:Deli / Bodega","nodename":"Deli / Bodega","iconurl":"http://foursquare.com/img/categories/food/deli.png"},"address":"911 Washington Ave","crossstreet":"10th st","city":"St Louis","state":"Missouri","zip":"63101","verified":false,"geolat":38.6310492,"geolong":-90.193198,"stats":{"herenow":"0"},"distance":69},{"id":152705,"name":"Washington Avenue Loft District","primarycategory":{"id":79130,"fullpathname":"Home / Work / Other:Government:Monument / Landmark","nodename":"Monument / Landmark","iconurl":"http://foursquare.com/img/categories/building/default.png"},"address":"917 Locust Street","city":"St. Louis","state":"MO","zip":"63101","verified":false,"geolat":38.630005,"geolong":-90.193804,"stats":{"herenow":"0"},"distance":112},{"id":12811416,"name":"Lgc Associates","address":"","city":"","state":"","verified":false,"geolat":38.63108,"geolong":-90.193327,"stats":{"herenow":"0"},"distance":59},{"id":8712677,"name":"Jack Daniel's Bounce House","address":"","city":"","state":"","verified":false,"geolat":38.63107,"geolong":-90.193428,"stats":{"herenow":"0"},"distance":50},{"id":12211444,"name":"Covention Center","primarycategory":{"id":96353,"fullpathname":"Home / Work / Other:Event Space","nodename":"Event Space","iconurl":"http://foursquare.com/img/categories/building/default.png"},"address":"","crossstreet":"washington st","city":"st louis","state":"mo","verified":false,"geolat":38.631129,"geolong":-90.194895,"stats":{"herenow":"0"},"distance":79},{"id":12093721,"name":"Prime1000","primarycategory":{"id":79092,"fullpathname":"Food:Steakhouse","nodename":"Steakhouse","iconurl":"http://foursquare.com/img/categories/food/steakhouse.png"},"address":"1000 washington ave","city":"St Louis","state":"MO","zip":"63101","verified":false,"geolat":38.631287,"geolong":-90.194578,"stats":{"herenow":"0"},"distance":59},{"id":8172607,"name":"Over Under","primarycategory":{"id":79039,"fullpathname":"Food:American","nodename":"American","iconurl":"http://foursquare.com/img/categories/food/default.png"},"address":"601-699 N 10th St","city":"St Louis","state":"Missouri","zip":"63101","verified":false,"geolat":38.6319192,"geolong":-90.1935672,"stats":{"herenow":"0"},"distance":109},{"id":5029801,"name":"501 At The Post Dispatch","address":"","city":"","state":"","verified":false,"geolat":38.630946,"geolong":-90.193142,"stats":{"herenow":"0"},"distance":74},{"id":7837881,"name":"Tabby Ryan And Matt","primarycategory":{"id":79158,"fullpathname":"Nightlife:Dive Bar","nodename":"Dive Bar","iconurl":"http://foursquare.com/img/categories/nightlife/default.png"},"address":"1000 Washington Ave","city":"St Louis","state":"Missouri","zip":"63101","verified":false,"geolat":38.631287,"geolong":-90.194578,"stats":{"herenow":"0"},"distance":59},{"id":11363572,"name":"St. Louis Combat Institute","primarycategory":{"id":79016,"fullpathname":"College & Education:Gym / Fitness","nodename":"Gym / Fitness","iconurl":"http://foursquare.com/img/categories/education/gym.png"},"address":"1437 South Vandeventer Ave.","city":"St Louis","state":"","zip":"63110","verified":false,"geolat":38.63112,"geolong":-90.194994,"stats":{"herenow":"0"},"phone":"3142899906","distance":87},{"id":4134964,"name":"Cultural Resources Office","primarycategory":{"id":79125,"fullpathname":"Home / Work / Other:Government","nodename":"Government","iconurl":"http://foursquare.com/img/categories/building/default.png"},"address":"1015 Locust, Ste. 1200","city":"St Louis","state":"MO","zip":"63101","verified":false,"geolat":38.630406,"geolong":-90.194907,"stats":{"herenow":"0"},"distance":102},{"id":7674354,"name":"Affordable Housing Commission","address":"1015 Locust Suite 914","city":"St Louis","state":"MO","zip":"63101","verified":false,"geolat":38.630406,"geolong":-90.194907,"stats":{"herenow":"0"},"distance":102},{"id":5463983,"name":"Mango","primarycategory":{"id":79088,"fullpathname":"Food:South American","nodename":"South American","iconurl":"http://foursquare.com/img/categories/food/southamerican.png"},"address":"1100 lucas","city":"St Louis","state":"MO","zip":"63101","verified":false,"geolat":38.6318845,"geolong":-90.194782,"stats":{"herenow":"0"},"distance":119},{"id":10274775,"name":"Smokin Lounge","primarycategory":{"id":79175,"fullpathname":"Nightlife:Strip Club","nodename":"Strip Club","iconurl":"http://foursquare.com/img/categories/nightlife/stripclub.png"},"address":"","city":"St Louis","state":"Missouri","zip":"63101","verified":false,"geolat":38.63112,"geolong":-90.194994,"stats":{"herenow":"0"},"distance":87},{"id":219024,"name":"St. Louis Landmarks Association","address":"911 Washington Ave.","crossstreet":"10th st.","city":"St. Louis","state":"MO","zip":"63102","verified":false,"geolat":38.6310492,"geolong":-90.193198,"stats":{"herenow":"0"},"distance":69},{"id":3936493,"name":"North, Inc.","address":"","city":"St Louis","state":"Missouri","verified":false,"geolat":38.631198,"geolong":-90.19475,"stats":{"herenow":"0"},"distance":68},{"id":153008,"name":"Paper Dolls","primarycategory":{"id":79170,"fullpathname":"Nightlife:Pub","nodename":"Pub","iconurl":"http://foursquare.com/img/categories/nightlife/default.png"},"address":"1021 Washington Avenue","crossstreet":"North 10th Street","city":"St. Louis","state":"MO","zip":"63101","verified":false,"geolat":38.631586,"geolong":-90.194666,"stats":{"herenow":"0"},"distance":87},{"id":265141,"name":"Landmarks Association of St. Louis","address":"911 Washington Ave","crossstreet":"10th","city":"St. Louis","state":"MO","zip":"63102","verified":false,"geolat":38.6310492,"geolong":-90.193198,"stats":{"herenow":"0"},"distance":69},{"id":238202,"name":"Coolfire","address":"10th st","city":"St. Louis","state":"MO","zip":"63101","verified":false,"geolat":38.6319228,"geolong":-90.1935458,"stats":{"herenow":"0"},"distance":110},{"id":172831,"name":"NGAGE","address":"411 N 10th st, 300","city":"St. Louis","state":"MO","zip":"63101","verified":true,"geolat":38.6299998,"geolong":-90.1943068,"stats":{"herenow":"0"},"distance":114}]}]}